City_ID,City,Country,Max Temp,Current Description,Lat,Lng,Hotel Name,Hotel name
0,Thompson,CA,68.16,broken clouds,55.7435,-97.8558,,Burntwood Hotel
1,Tuktoyaktuk,CA,43.48,overcast clouds,69.4541,-133.0374,,End of The Road Ltd.
2,Auchel,FR,63.1,overcast clouds,50.5034,2.4735,,Gîte d’étape du Presbytère
3,Flin Flon,CA,60.17,overcast clouds,54.7682,-101.865,,Victoria Inn Flin Flon
4,Harpanahalli,IN,72.32,overcast clouds,14.8,75.9833,,Bismillah Biriyani Hotel
5,Nome,US,44.67,light rain,64.5011,-165.4064,,Dredge 7 Inn
6,Hermanus,ZA,59.81,overcast clouds,-34.4187,19.2345,,Misty Waves Boutique Hotel
7,Punta Arenas,CL,37.51,clear sky,-53.15,-70.9167,,Hotel Hain
8,Norsup,VU,77.7,moderate rain,-16.0667,167.3833,,Nabelchel Bungalows
9,Hobart,AU,60.26,broken clouds,-42.8794,147.3294,,St Ives Hobart Accommodation Tasmania
10,Ponta Do Sol,PT,65.03,scattered clouds,32.6667,-17.1,,Hotel do Campo
11,Evensk,RU,46.72,overcast clouds,61.95,159.2333,,
12,Bethel,US,61.03,overcast clouds,41.3712,-73.414,,Courtyard by Marriott Danbury
13,Hithadhoo,MV,83.91,scattered clouds,-0.6,73.0833,,Scoop Guest House
14,Vestmanna,FO,49.12,broken clouds,62.1564,-7.1664,,Vestmanna Camping
15,Rikitea,PF,75.7,few clouds,-23.1203,-134.9692,,People ThankYou
16,Saravan,AM,51.58,scattered clouds,39.7196,45.6483,,
17,Ushuaia,AR,35.26,light rain,-54.8,-68.3,,Albatross Hotel
18,Cape Town,ZA,60.12,mist,-33.9258,18.4232,,"Radisson Blu Hotel Waterfront, Cape Town"
19,Aasiaat,GL,35.38,overcast clouds,68.7098,-52.8699,,Hotel Aasiaat Sømandshjem
20,Mataura,NZ,43.48,overcast clouds,-46.1927,168.8643,,Ellie's Villa
21,Tynset,NO,56.82,overcast clouds,62.2759,10.7824,,Tynset Rooms & Camping
22,Upernavik,GL,34.03,overcast clouds,72.7868,-56.1549,,Café de Upernavik
23,Bowen,AU,72.3,clear sky,-20.0167,148.2333,,Castle Motor Lodge Motel
24,Arbagar,RU,70.41,few clouds,51.9438,116.2805,,
25,Abonnema,NG,74.28,overcast clouds,4.7084,6.7931,,Corper's Lodge Obonoma
26,Castro,BR,58.95,clear sky,-24.7911,-50.0119,,CHACARA BAILLY
27,Minab,IR,88.12,scattered clouds,27.1467,57.0801,,Bam campground
28,Asau,RO,50.92,broken clouds,46.4333,26.4,,Casa Mika Ciobanus
29,Tiksi,RU,39.88,overcast clouds,71.6872,128.8694,,Arktika
30,Marietta,US,89.46,few clouds,33.9526,-84.5499,,Hilton Atlanta/Marietta Hotel & Conference Center
31,Pevek,RU,43.65,overcast clouds,69.7008,170.3133,,Severnoye Zoloto
32,Hami,CN,93.88,scattered clouds,42.8,93.45,,Laoyutang Resort
33,Butaritari,KI,81.73,light rain,3.0707,172.7902,,Isles Sunset Lodge
34,Rio Cuarto,AR,40.48,overcast clouds,-33.1307,-64.3499,,Hotel Menossi
35,Wawa,NG,72.75,light rain,9.9022,4.4192,,
36,Moissala,TD,71.17,moderate rain,8.3404,17.7663,,
37,Albany,US,63.18,overcast clouds,42.6001,-73.9662,,
38,Vestmannaeyjar,IS,46.89,overcast clouds,63.4427,-20.2734,,Glamping & Camping
39,Tazovskiy,RU,72.03,scattered clouds,67.4667,78.7,,TazHostel
41,Oussouye,SN,81.25,overcast clouds,12.485,-16.5469,,Auberge du Routard
42,Faya,SA,68.11,overcast clouds,18.3851,42.4509,,املاك خالد الشعشوع
43,Vaini,TO,77.16,few clouds,-21.2,-175.2,,Keleti Beach Resort
44,Provideniya,RU,41.36,mist,64.3833,-173.3,,
45,North Bend,US,70.25,overcast clouds,43.4065,-124.2243,,Red Lion Hotel Coos Bay
46,Saint Pete Beach,US,84.02,scattered clouds,27.7253,-82.7412,,Sirata Beach Resort
47,Bredasdorp,ZA,58.03,overcast clouds,-34.5322,20.0403,,Bredasdorp Country Manor
48,Le Port,RE,67.24,clear sky,-20.9373,55.2919,,KORBEY D'OR OUEST
49,Tacoronte,ES,59.41,broken clouds,28.4769,-16.4102,,Casa Laurel
50,Bambous Virieux,MU,70.05,scattered clouds,-20.3428,57.7575,,Casa Tia Villa
51,Taksimo,RU,55.18,overcast clouds,56.3444,114.8794,,"Gostinitsa ""Domashniy Ochag"""
52,Barkot,IN,77.36,few clouds,30.8167,78.2,,Camp Nirvana®
53,Tommot,RU,66.61,overcast clouds,58.9564,126.2925,,Gostinitsa Tommot
54,New Norfolk,AU,59.92,overcast clouds,-42.7826,147.0587,,The Shingles Riverside Cottages
55,Kichmengskiy Gorodok,RU,52.16,overcast clouds,59.9816,45.7854,,Gostinitsa
56,Cidreira,BR,61.11,overcast clouds,-30.1811,-50.2056,,Hotel Castelo
57,Kapaa,US,79.48,clear sky,22.0752,-159.319,,Sheraton Kauai Coconut Beach Resort
58,Boulsa,BF,79.21,scattered clouds,12.6675,-0.5758,,Auberge Relwende
59,Chicama,PE,59.54,few clouds,-7.8447,-79.1469,,Balihai Bungalows
60,Yulara,AU,61.79,clear sky,-25.2406,130.9889,,Desert Gardens Hotel - Ayers Rock Resort
61,Huntsville,US,87.6,clear sky,34.7304,-86.5861,,Embassy Suites by Hilton Huntsville Hotel
62,Puerto Ayora,EC,69.55,overcast clouds,-0.7393,-90.3518,,Finch Bay Galapagos Hotel
63,Fort Nelson,CA,56.79,light intensity shower rain,58.8053,-122.7002,,The Fort Nelson Hotel
64,Grand Gaube,MU,70.2,few clouds,-20.0064,57.6608,,Veranda Paul et Virginie Hotel & Spa
65,Kaifeng,CN,83.84,light rain,34.7911,114.3483,,Pullman Kaifeng Jianye
66,Barreirinha,BR,74.39,few clouds,-2.7933,-57.07,,Hotel e Restaurante Tupana Iwato
67,Leningradskiy,RU,52.5,overcast clouds,69.3833,178.4167,,Gostinitsa
68,Atuona,PF,78.22,few clouds,-9.8,-139.0333,,Villa Enata
69,Gizo,SB,84.96,overcast clouds,-8.103,156.8419,,Imagination Island
70,Mondragone,IT,76.93,clear sky,41.1141,13.8935,,villa lucia
71,Iqaluit,CA,38.93,broken clouds,63.7506,-68.5145,,Frobisher Inn
72,Port Alfred,ZA,62.85,overcast clouds,-33.5906,26.891,,The Halyards Hotel
73,Busselton,AU,59.02,light rain,-33.65,115.3333,,Observatory Guest House
74,Ribeira Grande,PT,65.21,overcast clouds,38.5167,-28.7,,Quinta da Meia Eira
75,Bang Len,TH,88.99,overcast clouds,14.0219,100.1718,,สบายฟ้าอพาร์ทเม้นท์
76,Mar Del Plata,AR,42.94,scattered clouds,-38.0023,-57.5575,,Gran Hotel Mar del Plata
77,Sitka,US,53.49,overcast clouds,57.0531,-135.33,,Westmark Sitka
78,Mitu,CO,71.62,overcast clouds,1.1983,-70.1733,,
79,Senno,RU,48.15,clear sky,59.5336,33.9167,,
80,Agua Verde,MX,82.35,broken clouds,22.9,-106.05,,
81,Torbay,CA,59.77,scattered clouds,47.6666,-52.7314,,Gallows Cove
82,Lalmohan,BD,84.06,overcast clouds,22.3384,90.7419,,Arifur Rahman Miraj
83,Ketchikan,US,54.93,overcast clouds,55.3422,-131.6461,,Snow's Cove Lodge
84,Lebu,CL,48.22,heavy intensity rain,-37.6167,-73.65,,Hostal Las Lilas
85,Yatou,CN,72.01,heavy intensity rain,37.15,122.3833,,GreenTree Hotel Rongcheng Bus Station
86,Norman Wells,CA,75.24,few clouds,65.282,-126.8329,,Heritage Hotel
87,Sur,OM,85.53,scattered clouds,22.5667,59.5289,,Sur Plaza Hotel
88,Coquimbo,CL,58.73,scattered clouds,-29.9533,-71.3436,,Hotel San Juan
89,Barrow,US,42.82,overcast clouds,71.2906,-156.7887,,King Eider Inn
90,Margate,GB,61.3,few clouds,51.3813,1.3862,,Premier Inn Margate hotel
91,Cabo San Lucas,MX,90.61,scattered clouds,22.8909,-109.9124,,Hotel Tesoro Los Cabos
92,Clyde River,CA,34.03,light snow,70.4692,-68.5914,,Qamaq Hotel
93,Kodiak,US,59.31,clear sky,57.79,-152.4072,,Best Western Kodiak Inn And Convention Center
94,Tuatapere,NZ,49.19,broken clouds,-46.1333,167.6833,,Ron and Tony's Bed & Breakfast
95,Daokou,CN,85.33,overcast clouds,35.5639,114.5058,,Shangri-La Hotel
96,Georgetown,MY,82.89,few clouds,5.4112,100.3354,,Cititel Penang
97,Husavik,IS,39.18,overcast clouds,66.0449,-17.3389,,Bjarnabúð
98,Juneau,US,57.22,overcast clouds,58.3019,-134.4197,,"Baranof Downtown, BW Signature Collection"
99,Nikolskoye,RU,55.8,broken clouds,59.7035,30.7861,,Tourist House - Sablino
100,Tiarei,PF,78.82,broken clouds,-17.5333,-149.3333,,Le Rocher de Tahiti
101,Sheridan,US,74.91,clear sky,44.8333,-106.9173,,Comfort Inn & Suites
102,Marienburg,PL,54.88,clear sky,54.0359,19.0266,,Hotel Centrum Malbork
103,Severo-Kurilsk,RU,48.45,broken clouds,50.6789,156.125,,Kak Doma
104,Carnarvon,AU,69.55,clear sky,-24.8667,113.6333,,Hospitality Carnarvon
105,Dunedin,NZ,51.8,overcast clouds,-45.8742,170.5036,,Scenic Hotel Southern Cross
106,Baheri,IN,90.5,clear sky,28.7833,79.5,,Welcome Palace Marriage Hall
107,Junin,AR,37.8,broken clouds,-34.5838,-60.9433,,Hotel Copahue
108,Dikson,RU,37.81,light rain,73.5069,80.5464,,
109,Mahebourg,MU,70.09,scattered clouds,-20.4081,57.7,,Shandrani Beachcomber Resort & Spa
110,Cherskiy,RU,55.54,light rain,68.75,161.3,,Gostinitsa
111,Vila Velha,BR,73.35,scattered clouds,-20.3297,-40.2925,,Hotel Vitória Palace
112,Bluff,NZ,43.81,broken clouds,-46.6,168.3333,,Bluff Homestead - Guesthouse & Campervan Park
113,Kindu,CD,69.44,light rain,-2.95,25.95,,Résidence Okanda
114,Iuna,BR,59.9,clear sky,-20.3458,-41.5358,,Hotel São Judas Tadeu
115,Ugoofaaru,MV,82.89,broken clouds,5.6667,73.0,,Ungoofaaru Inn
116,Kavieng,PG,83.53,light rain,-2.5744,150.7967,,Nusa Island Retreat
117,Umm Bab,QA,89.08,clear sky,25.2142,50.8072,,
118,Codrington,AU,59.25,overcast clouds,-38.2667,141.9667,,Codrington Gardens Bed And Breakfast
119,Bijie,CN,70.05,moderate rain,27.3125,105.2942,,Four Points by Sheraton Bijie
120,Halifax,CA,55.69,clear sky,44.6453,-63.5724,,Hotel Halifax
121,Biloela,AU,71.01,clear sky,-24.4167,150.5,,Silo Motor Inn Biloela
122,Abu Zabad,SD,82.0,few clouds,12.35,29.25,,حامد محمد نور
123,Lamu,KE,77.56,scattered clouds,-2.2717,40.902,,Lamu House
124,Nicolas Bravo,MX,74.19,clear sky,18.45,-88.9167,,
125,Bara,NG,74.89,broken clouds,10.3744,10.7288,,
126,Nishihara,JP,87.85,few clouds,26.1842,127.7558,,Minshuku Agaihama
127,Port Lincoln,AU,63.46,clear sky,-34.7333,135.8667,,Port Lincoln Hotel
128,Cabras,IT,79.86,overcast clouds,39.93,8.5314,,Hotel Villa Canu
129,Garachine,PA,78.26,overcast clouds,8.0647,-78.3628,,
130,The Pas,CA,60.82,overcast clouds,53.8251,-101.2541,,Wescana Inn
131,Kutum,SD,79.88,few clouds,14.2,24.6667,,Dibbo areaمنطقة دبو
132,Pangnirtung,CA,45.79,clear sky,66.1451,-65.7125,,Kilabuk Lodge
133,Auki,SB,86.68,clear sky,-8.7676,160.7034,,Auki Motel
134,Hilo,US,85.28,overcast clouds,19.7297,-155.09,,Hilo Hawaiian Hotel
135,San Patricio,US,86.85,clear sky,28.017,-97.5169,,"Motel 6 Sinton, TX"
137,Mantua,IT,72.55,clear sky,45.1667,10.7833,,Hotel la Favorita
138,Kaitangata,NZ,46.26,broken clouds,-46.2817,169.8464,,Kaitangata Motor Camp
139,East London,ZA,62.04,overcast clouds,-33.0153,27.9116,,Tu Casa
140,Hasaki,JP,75.6,overcast clouds,35.7333,140.8333,,Inubosaki Kanko Hotel
141,Kahului,US,79.84,overcast clouds,20.8947,-156.47,,Maui Seaside Hotel
142,Raga,SS,70.48,broken clouds,8.4596,25.678,,
143,Alice Springs,AU,62.15,clear sky,-23.7,133.8833,,Desert Palms Alice Springs
144,Amazar,RU,57.78,light rain,53.858,120.875,,Гостиничный Комплекс Уют
145,Yerbogachen,RU,72.75,scattered clouds,61.2767,108.0108,,
146,Tomatlan,MX,78.98,overcast clouds,19.9333,-105.25,,El Salvial
147,Atar,MR,90.54,clear sky,20.5169,-13.0499,,Oumou Elghoura
148,Bumba,CD,70.21,broken clouds,2.1833,22.4667,,Père Carlos
149,Neftcala,AZ,76.06,overcast clouds,39.3742,49.2472,,Otel restoran
150,Uhlove,UA,65.01,light rain,44.8215,33.6045,,Tavryda
151,Victoria,HK,88.32,scattered clouds,22.2855,114.1577,,Mini Central
152,Uglovskoye,RU,77.31,few clouds,51.3557,80.1942,,"""Premium"""
153,Ouango,CF,68.99,overcast clouds,4.3133,22.5552,,
154,Adrar,MR,88.05,clear sky,20.5022,-10.0711,,
155,Mattawa,US,87.8,few clouds,46.7379,-119.9028,,Sun & Sand Mobile Home Park
156,Deputatskiy,RU,48.47,few clouds,69.3,139.9,,Baza Otdykha
157,Saskylakh,RU,52.3,broken clouds,71.9167,114.0833,,
158,Kruisfontein,ZA,56.88,overcast clouds,-34.0033,24.7314,,Oyster Bay House Rental
159,Gamba,GA,67.82,clear sky,-2.65,10.0,,
160,Marondera,ZW,40.84,clear sky,-18.1853,31.5519,,HopeFay Conference Centre
161,Glenwood Springs,US,83.21,scattered clouds,39.5505,-107.3248,,Glenwood Springs Cedar Lodge
162,Anchorage,US,80.85,scattered clouds,61.2181,-149.9003,,Hotel Captain Cook
163,Bathsheba,BB,81.21,scattered clouds,13.2167,-59.5167,,Atlantis Hotel
164,Sandwick,GB,51.62,overcast clouds,60.0,-1.25,,Beach House Self-Catering Accomodation
165,Yebaishou,CN,80.51,clear sky,41.3975,119.6408,,Siji Home
166,Klaksvik,FO,50.92,overcast clouds,62.2266,-6.589,,Airbnb rooms
167,Nizhniy Kuranakh,RU,68.25,broken clouds,58.8353,125.4869,,Park Pobedy
168,Kenai,US,76.03,clear sky,60.5544,-151.2583,,Aspen Extended Stay Suites
169,Maralal,KE,56.98,overcast clouds,1.0968,36.698,,Ngari Hill Ecolodge
170,Mount Gambier,AU,57.11,broken clouds,-37.8333,140.7667,,The Commodore
171,Nioro,GM,83.75,broken clouds,13.35,-15.75,,
172,Arraial Do Cabo,BR,69.8,clear sky,-22.9661,-42.0278,,Pousada Porto Praia
173,Povenets,RU,51.82,overcast clouds,62.8487,34.8262,,Eko Otel' Bol'shaya Medveditsa
174,Karachi,PK,82.22,haze,24.9056,67.0822,,Sadaat
175,Nalut,LY,81.91,clear sky,30.3333,10.85,,
176,Marawi,PH,81.79,broken clouds,7.9986,124.2928,,Derogongan Residence
177,Sicamous,CA,77.97,scattered clouds,50.8331,-118.9856,,Best Western Sicamous Inn
178,Kavaratti,IN,81.72,light rain,10.5669,72.642,,Hotels in Lakshadweep Islands
179,Nailsea,GB,64.42,clear sky,51.4324,-2.7585,,The Old Smithy
180,Talcahuano,CL,49.68,moderate rain,-36.7167,-73.1167,,departamento comodo
181,Berdigestyakh,RU,79.2,scattered clouds,62.0989,126.6992,,
182,Hay River,CA,55.36,broken clouds,60.8156,-115.7999,,Ptarmigan Inn
183,Grindavik,IS,46.35,broken clouds,63.8424,-22.4338,,Northern Light Inn & Max's Restaurant
184,Fukuma,JP,89.29,scattered clouds,33.7667,130.4667,,Masago
185,Sampit,ID,80.46,overcast clouds,-2.5333,112.95,,Aquarius Boutique Hotel Sampit
186,Wau,SS,71.89,broken clouds,7.7029,27.9953,,Universal Gab Hotel
187,Bilibino,RU,64.26,overcast clouds,68.0546,166.4372,,Gostinitsa Severyanka
188,Chuy,UY,51.96,overcast clouds,-33.6971,-53.4616,,Nuevo Hotel Plaza
189,Longyearbyen,SJ,44.44,broken clouds,78.2186,15.6401,,"Radisson Blu Polar Hotel, Spitsbergen"
190,Vuktyl,RU,50.63,overcast clouds,63.8567,57.3094,,Mini-Hotel Lokomotiv
191,Komsomolskiy,UZ,70.52,light rain,40.4272,71.7189,,Ikathouse
192,Great Bend,US,76.03,broken clouds,38.3645,-98.7648,,Best Western Angus Inn
193,Geraldton,AU,61.21,clear sky,-28.7667,114.6,,Broadwater Mariner Resort
194,Abu Kamal,SY,80.78,clear sky,34.4506,40.9171,,البوكمال
195,Saint-Philippe,RE,63.99,light rain,-21.3585,55.7679,,"Chambres d'hôte ""La Trinité"""
196,Khatanga,RU,54.93,overcast clouds,71.9667,102.5,,"""Khatanga"""
197,Vila,PT,49.69,overcast clouds,42.0304,-8.1588,,Hotel Castrum Villae by Walk Hotels
198,Bastia,FR,75.29,clear sky,42.6667,9.3333,,Hotel Santa Maria
199,Yellowknife,CA,70.32,few clouds,62.456,-114.3525,,The Explorer Hotel
200,Bonavista,CA,52.14,broken clouds,48.6499,-53.1147,,Sweet Sharons bnb
201,Codajas,BR,76.23,overcast clouds,-3.8367,-62.0569,,Atlântic Hotel
202,Payo,ID,76.14,overcast clouds,-3.7508,103.6372,,Mess keban agung
203,Paralimni,CY,80.15,clear sky,35.0375,33.9833,,Amore Hotel Apartments
204,Mozarlandia,BR,71.65,few clouds,-14.7447,-50.5706,,Hotel Santa Mônica
205,Nikolayevka,RU,61.32,overcast clouds,53.1257,47.2041,,"Hotel ""Prestige"""
206,Atocha,BO,33.84,clear sky,-20.9333,-66.2333,,ALOJAMIENTO RESTAURANT BARQUITO
207,San Andres,CO,82.42,scattered clouds,12.5847,-81.7006,,Hotel Arena Blanca
208,Constitucion,CL,51.94,light rain,-35.3333,-72.4167,,Hotel Boutique Las Azucenas
209,Bima,ID,85.12,overcast clouds,-8.4667,118.7167,,Lambitu Hotel
210,Qaanaaq,GL,37.78,scattered clouds,77.484,-69.3632,,Qaanaaq Hotel
211,Trairi,BR,71.96,overcast clouds,-3.2778,-39.2689,,janelas do mar
212,Hokitika,NZ,50.31,overcast clouds,-42.7167,170.9667,,Beachfront Hotel Hokitika
213,Lahan,NP,86.65,clear sky,26.7296,86.4951,,Bhattarai Residence
214,Cumaral,CO,71.26,broken clouds,4.2708,-73.4867,,Finca El Jecho
215,Mezhdurechensk,RU,68.79,scattered clouds,53.6942,88.0603,,Apartments Mezhdurechensk
216,Sitrah,BH,91.36,clear sky,26.1547,50.6206,,Al Bander Resort
217,Hirara,JP,86.27,scattered clouds,24.8,125.2833,,Hotel Atoll Emerald Miyakojima
218,Saint George,US,90.63,clear sky,37.1041,-113.5841,,Best Western Plus Abbey Inn
219,Itoman,JP,88.57,few clouds,26.1247,127.6694,,Southern Beach Hotel & Resort Okinawa
220,Nelson Bay,AU,61.09,broken clouds,-32.7167,152.15,,Mantra Nelson Bay
221,Katsuura,JP,73.51,broken clouds,35.1333,140.3,,Katsuura Hotel Mikazuki
222,Awbari,LY,83.07,clear sky,26.5921,12.7805,,فندق أوباري
223,Pisco,PE,62.65,overcast clouds,-13.7,-76.2167,,Hotel San Isidro Oficial
224,Usinsk,RU,47.35,overcast clouds,65.9939,57.5281,,Dobro Pozhalovaty
225,Alta Floresta,BR,72.64,broken clouds,-9.8756,-56.0861,,Floresta Amazonica Hotel
226,Taoudenni,ML,96.49,clear sky,22.6783,-3.9836,,
227,Boo,SE,59.77,overcast clouds,59.3333,18.2833,,Yasuragi
228,Rio Gallegos,AR,35.65,clear sky,-51.6226,-69.2181,,Hotel Santa Cruz
229,Aklavik,CA,77.88,overcast clouds,68.2191,-135.0107,,Aklavik Inn
230,Amarante Do Maranhao,BR,71.44,clear sky,-5.5667,-46.7422,,Hotéis Caçulinha
231,Faanui,PF,80.11,few clouds,-16.4833,-151.75,,Bora-Bora Pearl Beach Resort & Spa
232,Eregli,TR,62.74,clear sky,37.5133,34.0467,,Hotel Fuat Bey
233,Aborlan,PH,80.67,overcast clouds,9.4352,118.5492,,Kevina Transient House
234,Port Macquarie,AU,64.89,clear sky,-31.4333,152.9167,,Rydges Port Macquarie
235,Buraydah,SA,86.45,light rain,26.326,43.975,,Mövenpick Qassim
236,Anadyr,RU,55.9,scattered clouds,64.75,177.4833,,Отке17.ру — жильё для командированных
237,Port Elizabeth,ZA,60.31,overcast clouds,-33.918,25.5701,,39 On Nile Guest House
238,Nanchang,CN,82.18,overcast clouds,28.6833,115.8833,,Ruidu Hotel
239,Haacht,BE,65.95,clear sky,50.9776,4.6354,,Kampeerverblijfpark Veronique
240,Luz,BR,60.87,scattered clouds,-19.8014,-45.6856,,Hotel Turista
241,Mareeba,AU,75.43,clear sky,-17.0,145.4333,,Trinity Plains Tourist Park
242,Touros,BR,74.82,light rain,-5.1989,-35.4608,,INN NEW HORIZON
243,Ambilobe,MG,61.32,clear sky,-13.2,49.05,,Hôtel & Restaurant DIANA Ambilobe
244,Saint-Francois,FR,58.44,clear sky,46.4154,3.9054,,Manoir Du Bonheur
245,Tamandare,BR,73.99,overcast clouds,-8.7597,-35.1047,,Pousada 100 Passos
246,Pokaran,IN,89.08,clear sky,26.9167,71.9167,,Motel Pokaran - RTDC
247,Bundaberg,AU,69.08,clear sky,-24.85,152.35,,Takalvan Motel
248,Florence,IT,74.53,clear sky,43.7667,11.25,,Hotel Nuova Italia
249,Cap Malheureux,MU,66.47,few clouds,-19.9842,57.6142,,Pereybere Hotel & Spa
250,Vostok,RU,67.19,overcast clouds,46.4856,135.8833,,
251,Nouadhibou,MR,73.38,few clouds,20.931,-17.0347,,El Medina
252,Chokurdakh,RU,43.95,overcast clouds,70.6333,147.9167,,
253,Saint-Augustin,CA,50.31,overcast clouds,51.226,-58.6502,,
254,West Fargo,US,82.45,clear sky,46.875,-96.9004,,Hilton Garden Inn Fargo
255,Bagdarin,RU,60.26,overcast clouds,54.4333,113.6,,Gostevoy Dom Terem
256,Vanimo,PG,84.81,clear sky,-2.6741,141.3028,,Vahmoneh Lodge Vanimo
257,Avarua,CK,82.45,broken clouds,-21.2078,-159.775,,Paradise Inn
258,Sabang,ID,81.01,light rain,5.8933,95.3214,,Hotel Citra
259,Freeport,US,64.38,mist,40.6576,-73.5832,,The Freeport Inn and Marina
260,Keelung,TW,93.11,clear sky,25.1283,121.7419,,East Coast Star Boutique Hotel
261,Dwarka,IN,84.56,broken clouds,22.2394,68.9678,,Hotel Narayan Avezika Comfort
262,Pionerskiy,RU,51.75,clear sky,54.9508,20.2275,,Baltica Pension
263,Iskateley,RU,41.34,overcast clouds,67.6803,53.1512,,Hostel Agat
264,Beringovskiy,RU,47.32,overcast clouds,63.05,179.3167,,
265,Kjopsvik,NO,51.17,overcast clouds,68.097,16.3742,,Stetind Hotell
266,Samana,DO,77.47,overcast clouds,19.2056,-69.3369,,The Bannister - Hotel & Yacht Club
267,Kyra,RU,67.35,clear sky,49.5776,111.9753,,
268,Sortland,NO,48.16,overcast clouds,68.6949,15.4162,,Sortland Hotel
269,Hamilton,US,74.77,few clouds,39.1834,-84.5333,,Six Acres Bed & Breakfast
270,Gat,IL,72.39,clear sky,31.61,34.7642,,OlusHome
271,Katsina,NG,82.65,clear sky,12.9894,7.6006,,Katsina Motel
272,Sioux Lookout,CA,69.87,scattered clouds,50.1001,-91.917,,Knobby's Fly-In Camps
273,Snasa,NO,53.35,light rain,64.2457,12.3778,,Snåsa Hotell AS
274,Srednekolymsk,RU,52.79,overcast clouds,67.45,153.6833,,
275,Coahuayana,MX,78.78,overcast clouds,18.7333,-103.6833,,El rranchito michuacan de ocampos
276,Danilov,RU,48.49,clear sky,58.1908,40.1717,,Sot'.
277,Laguna,US,95.31,broken clouds,38.421,-121.4238,,"Holiday Inn Express & Suites Elk Grove Central - Hwy 99, an IHG Hotel"
278,Byron Bay,AU,67.95,clear sky,-28.65,153.6167,,Backpackers Inn
279,Urucara,BR,75.42,broken clouds,-2.5364,-57.76,,Pousada Maria Bonita
280,Bukama,CD,62.49,clear sky,-9.2,25.85,,
281,Balabac,PH,85.35,scattered clouds,7.9868,117.0645,,Batalla’s Lodging House
282,Meulaboh,ID,78.46,overcast clouds,4.1363,96.1285,,Kost Pria
283,Havelock,US,80.55,scattered clouds,34.8791,-76.9013,,Sherwood Motel
284,Aripuana,BR,70.74,broken clouds,-9.1667,-60.6333,,
285,Vila Franca Do Campo,PT,64.2,light rain,37.7167,-25.4333,,Pestana Bahia Praia
286,Sola,VU,80.22,light rain,-13.8833,167.55,,Leumerus Bungalows
287,San Felipe,VE,71.4,scattered clouds,10.3399,-68.7425,,Posada Llovizna Rodríguez
288,Whitianga,NZ,56.41,clear sky,-36.8333,175.7,,Beachside Resort Whitianga
289,Lopsmarka,NO,55.51,light rain,67.3134,14.4493,,City Hotel Bodø
290,Samarai,PG,79.05,moderate rain,-10.6167,150.6667,,Nuli Sapi
291,Kodinsk,RU,60.87,overcast clouds,58.6881,99.1844,,
292,Lorengau,PG,84.15,broken clouds,-2.0226,147.2712,,Lorengau Harbourside Hotel
293,Havoysund,NO,46.63,overcast clouds,70.9963,24.6622,,Arctic View Glamping & Restaurant
294,Labuhan,ID,81.9,overcast clouds,-6.8844,112.2051,,DoubleFAG
295,Namatanai,PG,85.5,light rain,-3.6667,152.4333,,Seagulls Inn Namatani
296,Storsteinnes,NO,52.45,light rain,69.2408,19.2344,,Tingvoll
297,Whitehorse,CA,66.97,broken clouds,60.7161,-135.0538,,The Sternwheeler Hotel & Conference Centre
298,Ballina,AU,68.02,clear sky,-28.8667,153.5667,,Ramada Hotel & Suites by Wyndham Ballina Byron
299,Christchurch,NZ,50.92,overcast clouds,-43.5333,172.6333,,The George
300,Bedford,GB,60.13,clear sky,52.1346,-0.4663,,Premier Inn Bedford (Priory Marina) hotel
301,Richards Bay,ZA,64.92,overcast clouds,-28.783,32.0377,,BON Hotel Waterfront Richards Bay
302,Ostrovnoy,RU,50.41,overcast clouds,68.0531,39.5131,,
303,Nova Ushytsya,UA,52.41,broken clouds,48.8372,27.2743,,Khvylya
304,Saint-Leu,RE,66.31,light rain,-21.15,55.2833,,La Caz Oceane
305,Karratha,AU,77.67,clear sky,-20.7377,116.8463,,ibis Styles Karratha
306,Kirakira,SB,84.09,broken clouds,-10.4544,161.9205,,SanBiz Lodge
307,Chapais,CA,64.18,scattered clouds,49.7834,-74.8492,,Hôtel Opémiska
308,Nanortalik,GL,40.66,clear sky,60.1432,-45.2371,,Hotel Kap Farvel
309,Montrose,US,65.61,overcast clouds,38.4166,-108.2673,,
310,Moose Factory,CA,60.8,clear sky,51.2585,-80.6094,,Cree Village Eco Lodge
311,Karatau,KZ,69.66,overcast clouds,43.1667,70.4667,,Baza Zika
312,Autun,FR,58.93,broken clouds,46.95,4.3,,Les Ursulines Hotel
313,Portland,US,77.0,few clouds,45.5234,-122.6762,,Embassy Suites by Hilton Portland Downtown
314,Safaga,EG,83.03,clear sky,26.7292,33.9365,,Lamar Resort Abu Soma
315,Fort Dodge,US,82.4,clear sky,42.4975,-94.168,,"Country Inn & Suites by Radisson, Fort Dodge, IA"
316,Mariakani,KE,67.68,scattered clouds,-3.8633,39.4736,,The County Luxury Comfort Hotels Ltd
317,El Pueblito,MX,65.44,overcast clouds,20.5333,-100.45,,Capital O Villa Bonita
318,Mount Forest,CA,69.13,clear sky,43.9795,-80.7221,,Forest Plaza Motel
319,Inirida,CO,72.09,overcast clouds,3.8653,-67.9239,,Fuente del Guania Hotel de Lujo
320,Dauphin,CA,78.94,broken clouds,51.1494,-100.0502,,Canway Inn & Suites
321,Souillac,MU,70.18,scattered clouds,-20.5167,57.5167,,Shanti Maurice Resort & Spa
322,Nuuk,GL,34.88,overcast clouds,64.1835,-51.7216,,Vandrehuset
323,Acapulco,MX,76.73,overcast clouds,16.8634,-99.8901,,HS Hotsson Smart Acapulco
324,Nago,JP,88.65,clear sky,26.5881,127.9761,,Hotel Yugaf Inn Okinawa
325,Brownsville,US,85.08,clear sky,25.9018,-97.4975,,Best Western Hotel Plaza Matamoros
326,Belyy Yar,RU,71.49,light rain,53.6039,91.3903,,Pasportnyy Stol
327,Konza,KE,54.59,broken clouds,-1.7426,37.1294,,Camp Howl
328,Seybaplaya,MX,82.81,scattered clouds,19.65,-90.6667,,sala de fiesta san Rafael
329,Khorol,UA,56.16,light rain,49.7837,33.2783,,Castle Motel
330,Jamestown,US,74.84,clear sky,42.097,-79.2353,,Hampton Inn & Suites Jamestown
331,Kemin,KG,66.42,broken clouds,42.7846,75.6892,,Hotel Kok-Oirok
332,Alofi,NU,78.69,few clouds,-19.0595,-169.9187,,Taloa Heights
333,Kalanguy,RU,71.35,overcast clouds,51.0167,116.5167,,
334,Sakakah,SA,78.37,clear sky,29.9697,40.2064,,Fakhamat Al Orjoana Apartment
335,Vao,NC,71.22,overcast clouds,-22.6667,167.4833,,Hotel Kou-Bugny
336,Cervo,ES,58.33,broken clouds,43.6702,-7.4101,,Hotel Spa Galatea
337,Lianran,CN,64.94,light rain,24.9227,102.485,,半岛酒店
338,Aste,IT,65.77,clear sky,45.7906,11.0961,,B&B Arlanch 8
339,Yar-Sale,RU,71.98,clear sky,66.8333,70.8333,,Yalemd
340,Coruripe,BR,73.17,overcast clouds,-10.1256,-36.1756,,Pousada e Hotel Litoral Sul
341,Semme,FR,63.01,clear sky,46.1963,1.5007,,Inter-Hotel Alexia
342,Kidal,ML,86.52,broken clouds,18.4411,1.4078,,
343,Parrita,CR,78.1,overcast clouds,9.5201,-84.3225,,Beso del Viento
344,Cangzhou,CN,90.12,clear sky,38.3167,116.8667,,Jinji Express Hotel
345,Santa Vitoria Do Palmar,BR,51.13,light rain,-33.5189,-53.3681,,Hostel Comodoro
346,Nara,JP,90.97,scattered clouds,34.6851,135.8049,,Guesthouse Nara Komachi
347,Gisborne,NZ,54.25,broken clouds,-38.6533,178.0042,,ASURE Alfresco Motor Lodge
348,Kalna,IN,85.26,scattered clouds,23.2167,88.3667,,Hotel Priyadarshini
349,San Quintin,MX,70.09,clear sky,30.4833,-115.95,,Don Eddie's Sport Fishing Center
350,Malakal,SS,78.22,broken clouds,9.5334,31.6605,,Nile Palace Hotel
351,Sepuka,TZ,57.16,clear sky,-4.75,34.5333,,
352,Aleksandrov Gay,RU,74.86,overcast clouds,50.147,48.5704,,Gostinitsa
353,Nouakchott,MR,78.73,light rain,18.0858,-15.9785,,HOTEL IMAN
354,Churu,IN,86.97,clear sky,28.3,74.95,,Malji Ka Kamra
355,Onega,RU,49.03,broken clouds,63.9061,38.1404,,Lunny Kot Guest House
356,Caravelas,BR,71.04,clear sky,-17.7125,-39.2481,,Pousada dos Navegantes
357,Port Hardy,CA,57.38,few clouds,50.6996,-127.4199,,Airport Inn-Port Hardy
358,Nikolsk,RU,58.17,overcast clouds,53.7189,46.0712,,Гостиница Центральная
359,Calatayud,ES,61.09,clear sky,41.3535,-1.6432,,Globales Castillo de Ayud
360,Tahoua,NE,85.51,few clouds,14.8888,5.2692,,Bungalows Guesthouse
361,Baykit,RU,72.61,overcast clouds,61.67,96.37,,
362,Sri Aman,MY,75.25,scattered clouds,1.2376,111.4621,,Seri Simanggang Hotel
363,Naze,JP,81.52,clear sky,28.3667,129.4833,,Shishime Hotel
364,Hualmay,PE,61.57,clear sky,-11.0964,-77.6139,,Hotel Villa Kitzia Huacho
365,Jijiga,ET,61.5,overcast clouds,9.35,42.8,,RAMAAS HOTEL
366,Ancud,CL,38.23,clear sky,-41.8697,-73.8203,,Hotel Arena Gruesa
367,Inhambane,MZ,68.65,overcast clouds,-23.865,35.3833,,Oceano
368,Prince Rupert,CA,53.69,broken clouds,54.3161,-130.3201,,Crest Hotel
369,Mount Isa,AU,73.17,clear sky,-20.7333,139.5,,ibis Styles Mt Isa Verona
370,Sosnogorsk,RU,46.58,moderate rain,63.6023,53.8817,,Жемчужина
371,Verkhoyansk,RU,56.95,broken clouds,67.5447,133.385,,
372,Casablanca,MA,66.42,clear sky,33.5928,-7.6192,,فندق البيت المغربي كازبلانكا
373,Ponta Delgada,PT,64.51,light rain,37.7333,-25.6667,,Vila Nova Hotel
374,Tabou,CI,77.34,overcast clouds,4.423,-7.3528,,hotêl doufoulougou
375,Dandong,CN,68.67,heavy intensity rain,40.1292,124.3947,,Yiranju Farmstay
376,Zhigansk,RU,58.93,broken clouds,66.7697,123.3711,,Gostinichnyy Kompleks Aylgy
377,Nadym,RU,74.55,clear sky,65.5333,72.5167,,Apartment on Zvereva
378,Oum Hadjer,TD,85.46,scattered clouds,13.2954,19.6966,,
379,College,US,80.47,clear sky,64.8569,-147.8028,,Pike's Waterfront Lodge
380,Najran,SA,79.45,scattered clouds,17.4924,44.1277,,محمد هادي ال فطيح
381,Sakaiminato,JP,91.33,broken clouds,35.55,133.2333,,Italian pasley
382,Haines Junction,CA,67.95,overcast clouds,60.7522,-137.5108,,Parkside Inn
383,Ayan,RU,47.53,overcast clouds,56.45,138.1667,,Gostinitsa
384,Artemisa,CU,77.27,few clouds,22.814,-82.7561,,Hotel Moka
385,Abu Road,IN,86.22,clear sky,24.4833,72.7833,,Private Room In the Heart of the city.
386,Morant Bay,JM,82.02,broken clouds,17.8815,-76.4093,,Whispering Bamboo Cove Resort
387,Mandiana,GN,71.02,overcast clouds,10.6333,-8.6833,,Motels rouzo
389,Ust-Maya,RU,82.56,clear sky,60.4167,134.5333,,
390,Calpulalpan,MX,53.2,overcast clouds,19.5833,-98.5833,,Hotel Paraiso
391,Narsaq,GL,45.93,clear sky,60.9167,-46.05,,Sleep In Narsaq
392,Lompoc,US,71.85,clear sky,34.6391,-120.4579,,"Holiday Inn Express Lompoc, an IHG Hotel"
393,Lasa,IT,58.37,few clouds,46.6166,10.7002,,Pension Feldgärtenhof
394,Nyurba,RU,80.44,broken clouds,63.2842,118.3319,,"Гостиница ""Comfort"""
395,Hauzenberg,DE,65.35,overcast clouds,48.65,13.6333,,Naturhotel Gidibauer Hof
396,Mombasa,KE,74.82,light rain,-4.0547,39.6636,,New Palm Tree Hotel
397,Teguise,ES,62.82,clear sky,29.0605,-13.564,,B&B La Casona de Nazaret
398,Marsaxlokk,MT,77.07,clear sky,35.8419,14.5431,,Water's Edge
399,Lehtmetsa,EE,55.22,overcast clouds,59.3237,25.3457,,Paasiku koertemõis
400,Sao Joao Da Barra,BR,71.6,clear sky,-21.6403,-41.0511,,Pousada Porto De Canoas
401,Kendari,ID,74.68,overcast clouds,-3.945,122.4989,,Hotel Wixel
402,Longos,PH,85.89,broken clouds,16.1066,120.3954,,A-venue Beach Resort
403,Ola,RU,53.15,overcast clouds,59.5833,151.2833,,
404,Karlivka,UA,49.23,overcast clouds,49.4567,35.1295,,Hostynytsa Kolos
405,Taitung,TW,89.87,few clouds,22.7583,121.1444,,Taitung Bali Suites Hotel
406,Ercis,TR,53.19,clear sky,39.0287,43.3586,,Erciş Elit Otel
407,Vung Tau,VN,82.8,overcast clouds,10.346,107.0843,,Seaside Resort
408,Paamiut,GL,37.38,few clouds,61.994,-49.6678,,Pistut
409,Airai,TL,68.45,broken clouds,-8.9266,125.4092,,
410,La Asuncion,VE,80.33,few clouds,11.0333,-63.8628,,Colinas de Matasiete
411,Egvekinot,RU,41.09,overcast clouds,66.3167,-179.1667,,
412,Wilmington,US,82.98,broken clouds,34.2257,-77.9447,,"Hotel Ballast Wilmington, Tapestry Collection by Hilton"
413,Launceston,AU,56.84,light rain,-41.45,147.1667,,Hotel Grand Chancellor Launceston
414,Santiago,CL,53.85,light rain,-33.4569,-70.6483,,Hotel Panamericano
415,Lekoni,GA,73.89,light rain,-1.5843,14.2591,,Rendez-vous Des ChasseursD
416,Bulgan,MN,68.29,clear sky,48.8125,103.5347,,Unitel Булган салбар
417,Paidha,UG,60.1,overcast clouds,2.4167,30.9855,,OPIPAAF (OTHUMBA PITHUA PALWONGA )
418,Khamanon,IN,85.96,clear sky,30.8186,76.3508,,Khamanon Bus Stand
419,Sokolo,ML,81.07,overcast clouds,14.7328,-6.1219,,
420,Changtu,CN,67.59,overcast clouds,42.7788,124.0955,,Ming Yang Inn
421,Gualaquiza,EC,60.19,light rain,-3.4,-78.55,,Hotel Merceditas
422,Key West,US,82.0,overcast clouds,24.5557,-81.7826,,Fairfield Inn & Suites by Marriott Key West
423,Dukat,RU,51.24,light rain,62.55,155.55,,
424,Bandarbeyla,SO,77.4,overcast clouds,9.4942,50.8122,,JABIR HOTEL
425,Kisangani,CD,69.28,light rain,0.5167,25.2,,Grand Ramela Hotel
426,Tucupita,VE,73.94,overcast clouds,9.0622,-62.051,,Hotel Tucupita Su​ite C.A.
427,Santiago Del Estero,AR,51.08,overcast clouds,-27.7951,-64.2615,,Apartamentos Castelli 90
428,Menongue,AO,50.47,clear sky,-14.6585,17.691,,Ritz Lauca
429,Benjamin Constant,BR,75.33,clear sky,-4.3831,-70.0311,,CASA AVALIADA
430,Iralaya,HN,79.0,clear sky,15.0,-83.2333,,Iglesia morava renovada
431,Bhera,PK,81.64,clear sky,32.4832,72.9097,,Shahmeer Tea stall
432,Makurdi,NG,73.71,overcast clouds,7.7411,8.5121,,Doo Palace Hotel
433,Belaya Gora,RU,52.05,clear sky,68.5333,146.4167,,
434,Wanning,CN,87.04,scattered clouds,18.8003,110.3967,,Paradise Hotel
435,Cayenne,GF,78.1,scattered clouds,4.9333,-52.3333,,Hôtel Le Dronmi
436,Fairbanks,US,79.48,clear sky,64.8378,-147.7164,,Westmark Fairbanks Hotel & Conference Center
437,Mahon,ES,73.96,light rain,39.8885,4.2658,,ARTIEM Capri
438,Sumbawanga,TZ,53.4,clear sky,-7.9667,31.6167,,Matamba II Guest House
439,Sulangan,PH,83.59,overcast clouds,11.1373,123.7228,,Maia's Beach Resort
440,Batangafo,CF,70.05,light rain,7.3008,18.2833,,OCHA Office
441,Caxito,AO,62.55,scattered clouds,-8.5785,13.6643,,
442,Manaus,BR,81.09,clear sky,-3.1019,-60.025,,Manaus Hotéis Millennium
443,Kenora,CA,72.57,few clouds,49.8167,-94.4337,,Maynard Lake Lodge
444,Waddan,LY,74.84,clear sky,29.1614,16.139,,محل الشريف محمد العايب
445,Kalmunai,LK,80.96,overcast clouds,7.4167,81.8167,,VS Villa
446,Kota Belud,MY,85.95,scattered clouds,6.351,116.4305,,Tang Dynasty Lodge Kota Belud
447,Naryan-Mar,RU,41.63,overcast clouds,67.6713,53.087,,Hostel Agat
448,Tepeaca,MX,58.26,overcast clouds,18.9667,-97.9,,Hotel Colonial
449,Boyuibe,BO,56.59,clear sky,-20.4167,-63.2833,,Residencial Eluzai
450,Akdepe,TM,73.49,clear sky,42.0551,59.3788,,
451,Udachnyy,RU,82.45,broken clouds,66.4167,112.4,,Severnoye Siyaniye
452,Porto Novo,BJ,74.64,overcast clouds,6.4965,2.6036,,Tour Eiffel Hotel Benin
453,Rawson,AR,36.0,clear sky,-43.3002,-65.1023,,Hosteria Sampedro
454,Kishtwar,IN,68.29,clear sky,33.3167,75.7667,,Heritage Bagh by Himalayan Musk
455,Alexandria,EG,78.76,scattered clouds,31.2156,29.9553,,Royal Crown Hotel
456,Goma,CD,59.34,broken clouds,-1.6792,29.2228,,"Goma, CENTRE D'ACCUEIL CARITAS"
457,Olafsvik,IS,42.96,broken clouds,64.8945,-23.7142,,Hotel Olafsvik
459,Lodja,CD,74.26,overcast clouds,-3.4833,23.4333,,
460,Rocha,UY,47.08,moderate rain,-34.4833,-54.3333,,Hotel Arrarte
461,Esperance,AU,62.46,overcast clouds,-33.8667,121.9,,Hospitality Esperance
462,Nyrob,RU,54.03,broken clouds,60.733,56.7202,,Gostinitsa
463,Kloulklubed,PW,84.7,overcast clouds,7.0419,134.2556,,Storyboard Beach Resort
465,Hofn,IS,45.43,overcast clouds,64.2539,-15.2082,,Hótel Höfn
466,Ilulissat,GL,33.1,overcast clouds,69.2167,-51.1,,Hotel Arctic
467,Jahangirabad,IN,89.91,clear sky,28.4167,78.1,,लोधी फार्म हाउस जहांगीराबाद
468,Mandalgovi,MN,69.48,clear sky,45.7625,106.2708,,В.Ганбат
469,Lagoa,PT,64.22,overcast clouds,39.05,-27.9833,,Casa Das Faias
470,Tura,IN,78.42,overcast clouds,25.5198,90.2201,,Hotel RIKMAN Continental
471,Sao Filipe,CV,75.63,scattered clouds,14.8961,-24.4956,,Hotel Xaguate
472,Los Llanos De Aridane,ES,65.95,overcast clouds,28.6585,-17.9182,,Valle Aridane
473,Berlevag,NO,44.6,clear sky,70.8578,29.0864,,Kvitbrakka
474,Agucadoura,PT,61.25,scattered clouds,41.4318,-8.7804,,Varzinn Hotel
475,Ahipara,NZ,60.1,broken clouds,-35.1667,173.1667,,Ahipara Holiday Park
476,Satana,IN,76.82,overcast clouds,20.5833,74.2,,Yashvant hotel
477,Porto Belo,BR,67.95,few clouds,-27.1578,-48.5531,,Costa Verde Beach Hotel
478,Wilsonville,US,77.29,scattered clouds,45.2998,-122.7737,,"Holiday Inn Portland- I-5 S (Wilsonville), an IHG Hotel"
479,San Cristobal,VE,75.38,clear sky,7.7669,-72.225,,Pirineos
480,Deloraine,AU,54.39,overcast clouds,-41.5333,146.6667,,Mountain View Country Inn
481,Itarema,BR,74.17,overcast clouds,-2.9248,-39.9167,,"Sea Lounge! Bar, Club & Restaurant"
482,Puerto Asis,CO,70.68,few clouds,0.5133,-76.5007,,Ayawaska Hostal
483,Manta,EC,71.38,overcast clouds,-0.95,-80.7333,,Balandra Hotel
484,Siyabuswa,ZA,51.55,few clouds,-25.1132,29.0445,,Confy Inn Guest Rooms
485,Kyabe,TD,71.69,moderate rain,9.4515,18.9449,,
486,Moron,AR,46.15,overcast clouds,-34.6534,-58.6198,,Hotel Morón
487,Noumea,NC,75.18,overcast clouds,-22.2763,166.4572,,Hôtel Le Lagon
488,Namibe,AO,61.61,clear sky,-15.1961,12.1522,,Hotel Chik Chik Namibe
489,Karatu,TZ,54.93,broken clouds,-3.3333,35.6667,,Highview Hotel
490,Sinjar,IQ,77.4,clear sky,36.3209,41.8754,,زوماني فون 1
491,Eureka,US,67.19,few clouds,40.8021,-124.1637,,Eureka Inn Trademark By Wyndham
492,Fonseca,CO,74.53,overcast clouds,10.8861,-72.8487,,Hotel Winsor Fonseca
493,Te Anau,NZ,46.51,broken clouds,-45.4167,167.7167,,Kingsgate Hotel Te Anau
494,Victor Harbor,AU,62.01,overcast clouds,-35.5667,138.6167,,McCracken Country Club
495,Port-Gentil,GA,72.0,overcast clouds,-0.7193,8.7815,,Fengshui Residence
496,Tricase,IT,71.31,few clouds,39.9304,18.3553,,Hotel Adriatico
497,Carmo Do Rio Claro,BR,59.4,clear sky,-20.9719,-46.1189,,Varandas da Montanha Hotel
499,Camacha,PT,63.82,broken clouds,33.0833,-16.3333,,Hotel Porto Santo & Spa
500,Baruun-Urt,MN,70.11,clear sky,46.6806,113.2792,,Ахмадын амралт сувилал
501,Lazaro Cardenas,MX,76.05,overcast clouds,17.9583,-102.2,,HOTEL QUINTA ANTIGUA
502,Tessalit,ML,93.2,scattered clouds,20.1986,1.0114,,
503,Port Blair,IN,80.64,broken clouds,11.6667,92.75,,"Welcomhotel By ITC Hotels, Bay Island, Port Blair"
504,Altamira,BR,72.0,scattered clouds,-3.2033,-52.2064,,Requinte Hotel
505,Sabha,LY,81.73,clear sky,27.0377,14.4283,,محطة ام الارانب -سبها مواصلات
506,Kaeo,NZ,58.05,overcast clouds,-35.1,173.7833,,Bushido Lodge
507,Derzhavinsk,KZ,72.21,broken clouds,51.1,66.3167,,Ooo.khim Baza
508,Verkhnevilyuysk,RU,79.75,overcast clouds,63.4453,120.3167,,Gostinitsa Mila
509,Kikwit,CD,71.62,overcast clouds,-5.041,18.8162,,HOTEL PLACE YALABA
510,Qarchi Gak,AF,78.62,clear sky,37.04,66.7889,,
511,Landshut,DE,65.79,light rain,48.5333,12.15,,Hotel Goldene Sonne
512,Watrous,CA,80.38,scattered clouds,51.6668,-105.4679,,Manitou Hotel
513,Sonoita,MX,96.12,few clouds,31.85,-112.8333,,Hotel internacional
514,Pitimbu,BR,70.39,moderate rain,-7.4706,-34.8086,,Reserva do Abiaí
515,Ligayan,PH,83.73,overcast clouds,4.6533,119.4706,,
516,Lata,PT,58.08,few clouds,40.1629,-8.3327,,Casa Maquia
517,Catamarca,AR,46.58,broken clouds,-28.4696,-65.7852,,Amerian Catamarca Park Hotel
518,Lavrentiya,RU,47.73,broken clouds,65.5833,-171.0,,
519,Grand-Lahou,CI,76.1,light rain,5.1367,-5.0242,,Hotel Beatitude de Grand Lahou
520,Mehamn,NO,44.55,scattered clouds,71.0357,27.8492,,Mehamn Arctic Hotel AS
521,Westport,US,62.74,overcast clouds,41.1415,-73.3579,,The Westport Inn
522,Salalah,OM,80.13,light rain,17.0151,54.0924,,"HAMDAN PLAZA HOTEL SALALAH, an HTG Hotel"
523,Japura,ID,79.18,overcast clouds,-0.3167,102.35,,Rumah mbah Jamah
524,Galesong,ID,82.42,scattered clouds,-5.3166,119.3661,,Sapriadi Appy
525,Korla,CN,91.17,broken clouds,41.7597,86.1469,,Gulisitan Hotel
526,Bac Lieu,VN,85.26,overcast clouds,9.285,105.7244,,Khách sạn Sài Gòn Bạc Liêu
527,Vrangel,RU,59.59,overcast clouds,42.7297,133.0839,,"Отель ""БАЛИ"""
528,Esmeraldas,BR,65.44,few clouds,-19.7625,-44.3139,,Forasteiro Pousada
529,High Level,CA,59.11,light rain,58.5169,-117.136,,Days Inn by Wyndham High Level
530,Wattegama,LK,77.68,overcast clouds,6.7989,81.4808,,
531,Sinnamary,GF,77.04,scattered clouds,5.3833,-52.95,,ALETHEIA Appartement Sinnamary
532,Sambava,MG,67.32,overcast clouds,-14.2667,50.1667,,Melrose
533,Pampa,US,89.74,clear sky,35.5362,-100.9599,,"Holiday Inn Express & Suites Pampa, an IHG Hotel"
534,Russell,US,88.88,clear sky,32.3502,-85.1999,,Macs
535,Gornopravdinsk,RU,62.46,overcast clouds,60.05,69.9,,Hostel
536,Hadrut,AZ,65.82,broken clouds,39.52,47.0318,,Zəfər otel
537,Nabire,ID,81.07,scattered clouds,-3.3667,135.4833,,Hotel Nusantara I
538,Selma,US,98.19,broken clouds,36.5708,-119.6121,,"Holiday Inn Selma-Swancourt, an IHG Hotel"
539,Seydi,TM,81.32,clear sky,39.4816,62.9137,,Seydi oteli
540,Baltiysk,RU,56.19,clear sky,54.6538,19.911,,Guest house on Vzmorye
541,Salym,RU,63.01,clear sky,60.0625,71.4789,,Gostinitsa Salym
542,Sakiai,LT,50.97,few clouds,54.9547,23.0358,,Hotel Centras
543,Sistranda,NO,53.56,light rain,63.7256,8.834,,Hotell Frøya
544,Tha Chang,TH,83.23,few clouds,9.2642,99.1922,,สุริยาค้าไม้
545,Santa Maria Da Vitoria,BR,68.54,broken clouds,-13.3947,-44.1886,,Pousada Rio Current
546,Fayaoue,NC,73.58,overcast clouds,-20.65,166.5333,,Chez Dydyce Guesthouse
547,Fortuna,US,65.93,few clouds,40.5982,-124.1573,,Super 8 by Wyndham Fortuna
548,Ebbs,AT,64.08,broken clouds,47.6333,12.2167,,Sporthotel Wilder Kaiser
549,Bennettsville,US,85.19,clear sky,34.6174,-79.6848,,Quality Inn
550,Basarabeasca,MD,57.69,few clouds,46.3311,28.9728,,
551,Razgrad,BG,57.61,scattered clouds,43.5333,26.5167,,Interrum
552,Zhigalovo,RU,64.0,overcast clouds,54.8097,105.1578,,"Hotel ""Lenatur"""
553,Kungurtug,RU,69.49,clear sky,50.5994,97.5228,,
554,Blagoveshchenka,RU,69.13,clear sky,52.8333,79.8667,,"Gostinitsa ""Tsentral'naya"""
555,Miraflores,MX,60.87,overcast clouds,19.2167,-98.8083,,Hotel Mansión
556,Turan,VN,87.78,clear sky,16.0678,108.2208,,Grand Mercure Danang
557,Krasnoarmeysk,RU,64.87,overcast clouds,51.0239,45.6969,,"Hotel ""Your home-Balzer"""
558,San Juan,AR,41.72,broken clouds,-31.5375,-68.5364,,Hotel Provincial
559,Samur,RU,72.1,overcast clouds,41.8253,48.486,,Samur
560,Lyngseidet,NO,55.4,overcast clouds,69.5763,20.2189,,Magic Mountain Lodge
561,Redcliffe,AU,73.42,few clouds,-27.2307,153.0973,,Scarborough Beach Resort
562,Riberalta,BO,78.06,overcast clouds,-10.9833,-66.1,,Hotel Colonial
563,Gazanjyk,TM,81.77,clear sky,39.2446,55.5154,,Railway motel
564,Pokhara,NP,77.2,few clouds,28.2333,83.9833,,OYO 170 Hotel View Point
565,Koltsovo,RU,65.59,broken clouds,54.9376,83.1825,,"Agat, Gostinichnyy Kompleks"
566,Elmvale,CA,69.76,clear sky,44.5834,-79.8664,,To Jo's Christian Family Camp
567,Fukue,JP,75.56,broken clouds,32.6881,128.8419,,Goto Guesthouse Utojuku & SA Car Rental
568,Saiki,JP,94.8,few clouds,32.95,131.9,,（株）サンテツ
569,Kampot,KH,87.85,overcast clouds,10.6167,104.1833,,Two Moons Hotel
570,Iisalmi,FI,55.0,overcast clouds,63.5592,27.1907,,Original Sokos Hotel Koljonvirta
571,Fort Pierce,US,81.0,overcast clouds,27.4467,-80.3256,,Hutchinson Island Plaza Hotel & Suites
572,Manthani,IN,81.12,broken clouds,18.65,79.6667,,"Sri Sai bike Paint,manthani"
573,Makushino,RU,61.21,clear sky,55.2103,67.2442,,Cristina Hotel
574,Rawah,IQ,79.95,clear sky,34.4816,41.9093,,بيت سميع
575,Gushikawa,JP,86.63,clear sky,26.3544,127.8686,,Kirari Guest House
576,Vardo,NO,44.58,few clouds,70.3705,31.1107,,Vardø Hotel AS
577,Odweyne,SO,69.08,broken clouds,9.4092,45.064,,Eng Hiirey House
578,Bayan,CN,66.16,overcast clouds,46.0833,127.4,,Wanhao Inn
579,Paraiso,CR,65.41,overcast clouds,9.8383,-83.8656,,Hotel Rinconcito Verde
580,Petropavlovsk-Kamchatskiy,RU,64.99,clear sky,53.0452,158.6483,,The Hotel Petropavlovsky
581,Havre-Saint-Pierre,CA,55.76,overcast clouds,50.2334,-63.5986,,Auberge Niapiskau
582,Ushtobe,KZ,86.27,overcast clouds,45.2514,77.9838,,Filipin Squad
583,Padang,ID,77.05,overcast clouds,-0.9492,100.3543,,Mercure Padang
584,Bassar,TG,68.0,overcast clouds,9.25,0.7833,,Hôtel KYRIAD
585,Zalantun,CN,76.84,overcast clouds,48.0,122.7167,,GreenTree Alliance Hulunbeier Zhalantun Railway Station Hotel
586,Waipawa,NZ,50.63,broken clouds,-41.4122,175.5153,,Tora Coastal Walk
587,Puerto Quijarro,BO,72.7,few clouds,-17.7833,-57.7667,,Hotel palance
588,Preobrazheniye,RU,58.3,overcast clouds,42.9019,133.9064,,Campsite Orlan
589,Beloha,MG,59.54,clear sky,-25.1667,45.05,,
590,Janauba,BR,66.06,clear sky,-15.8025,-43.3089,,Ouro Norte Palace Hotel
591,Bonoua,CI,74.82,light rain,5.2741,-3.595,,Hotel Bon Samaritian
592,Chokwe,MZ,63.41,broken clouds,-24.5333,32.9833,,Complexo Sonho Real
593,Chimbote,PE,62.13,clear sky,-9.0853,-78.5783,,Hotel Briliá
594,Nemuro,JP,50.4,overcast clouds,43.3236,145.575,,Hotel Nemuro Kaiyoutei
595,Mazamari,PE,72.39,overcast clouds,-11.3258,-74.5308,,Hospedaje Ratto
596,Ruteng,ID,68.11,overcast clouds,-8.6136,120.4721,,Hotel FX 72
597,Saint-Pierre,RE,66.9,broken clouds,-21.3393,55.4781,,Alize Plage
598,Ambunti,PG,90.16,scattered clouds,-4.2365,142.8448,,AMBUNTI HIDE INN
599,Sobolevo,RU,51.66,scattered clouds,54.4299,31.8996,,
600,Huanan,CN,69.35,moderate rain,46.2167,130.5167,,Xilong Hotel
601,Greeley,US,85.01,clear sky,40.4233,-104.7091,,Fairfield Inn & Suites by Marriott Greeley
602,Sotnikovo,RU,69.89,clear sky,51.8845,107.4791,,Malinki
603,Quang Ngai,VN,86.14,overcast clouds,15.1167,108.8,,Central Hotel
605,La Orilla,MX,75.36,overcast clouds,17.9833,-102.2333,,Baymont by Wyndham Lazaro Cardenas
606,Sarkand,KZ,85.24,broken clouds,45.41,79.9186,,Гостиница Сарканд
607,Dingle,PH,85.51,broken clouds,10.9995,122.6711,,SEGAYA PROPERTY
608,Avera,US,84.25,clear sky,33.194,-82.5271,,
609,Kihurio,TZ,62.4,broken clouds,-4.4667,38.0667,,
610,Sept-Iles,CA,56.05,overcast clouds,50.2001,-66.3821,,Comfort Inn
611,Milton,US,89.89,clear sky,34.1322,-84.3007,,Pine Ridge Manufactured House
612,Lodeynoye Pole,RU,50.68,overcast clouds,60.726,33.5531,,Svir Mini-Hotel
613,Okitipupa,NG,72.16,overcast clouds,6.5047,4.7839,,Coastal Hotel & Suites
614,La Reforma,MX,84.92,scattered clouds,25.0833,-108.05,,Hotel Reforma
615,Ambanja,MG,65.05,clear sky,-13.6833,48.45,,Hotel Salama and Fast Food
616,Damaturu,NG,80.73,scattered clouds,11.747,11.9608,,"Hayas Guest Inn, Central Roundabout, Gujba Road"
618,Pabna,BD,83.98,broken clouds,24.0,89.25,,Hotel Dream Palace International
619,Tromso,NO,49.37,light rain,69.6496,18.957,,"Radisson Blu Hotel, Tromsø"
620,Xai-Xai,MZ,66.65,broken clouds,-25.0519,33.6442,,Complexo da Familia
621,Razole,IN,86.88,broken clouds,16.4833,81.8333,,Sterling Palavelli Godavari
622,Pacific Grove,US,68.38,scattered clouds,36.6177,-121.9166,,Lovers Point Inn
623,Manadhoo,MV,82.69,broken clouds,5.7667,73.3833,,Bon Abri maldives
624,Beboto,TD,71.26,moderate rain,8.2668,16.939,,
625,Laiwu,CN,84.33,broken clouds,36.1928,117.6569,,Hanting Hotel Laiwu Yinzuo Mall
626,Fare,PF,80.1,few clouds,-16.7,-151.0167,,Maitai Lapita Village Huahine
627,Akyab,MM,82.27,overcast clouds,20.15,92.9,,Hotel Memory
628,Yeppoon,AU,73.18,clear sky,-23.1333,150.7333,,Villa Mar Colina
629,Pochutla,MX,71.82,overcast clouds,15.7432,-96.4661,,Hotel Posada San Jose
630,Prince George,CA,56.64,clear sky,53.9166,-122.753,,Canadas Best Value Inn Prince George
631,Porto Nacional,BR,75.2,clear sky,-10.7081,-48.4172,,Vila Real Hotel
632,Ust-Tsilma,RU,43.52,overcast clouds,65.441,52.1498,,U Praskov'i
633,Ulaangom,MN,73.38,few clouds,49.9811,92.0667,,Achit Nuur Hotel & Restaurant
634,Mana,GF,77.52,few clouds,5.6592,-53.7767,,LE SAMANA
635,Podor,MR,87.78,few clouds,16.6527,-14.9587,,Auberge Du Tékrour
636,Guerrero Negro,MX,71.65,clear sky,27.9769,-114.0611,,"Casa Laguna, Bed & Breakfast"
637,Kemijarvi,FI,49.37,overcast clouds,66.7131,27.4306,,Hotelli Kemijärvi
638,Kuchera,IN,87.37,clear sky,26.9839,73.9719,,Surendra Java
639,Gualeguay,AR,44.11,broken clouds,-33.1416,-59.3097,,Faro del Lago
640,Estevan,CA,79.0,clear sky,49.1334,-102.9842,,"Motel 6 Estevan, SK"
641,Fethiye,TR,73.27,clear sky,36.6217,29.1164,,Club & Hotel Letoonia
642,Aksu,CN,83.68,overcast clouds,41.1231,80.2644,,Pudong Holiday Hotel
643,Belmonte,BR,72.16,few clouds,-15.8631,-38.8828,,Pousada Monte Carmelo O Pão
644,Waingapu,ID,83.57,scattered clouds,-9.6567,120.2641,,Pondok Wisata Elim
645,Altay,CN,82.35,clear sky,47.8667,88.1167,,Jinqiao Hotel
646,Sao Jose Da Coroa Grande,BR,74.14,overcast clouds,-8.8978,-35.1478,,Crôa Mares Hotel
647,Putai,FR,58.39,clear sky,46.6579,1.9863,,La Croix Verte
648,Yumen,CN,86.32,clear sky,40.2833,97.2,,
649,Roald,NO,57.76,light rain,62.5833,6.1333,,Flem Cabins
650,Mecca,SA,83.28,broken clouds,21.4267,39.8261,,"Makkah Clock Royal Tower, A Fairmont Hotel"
651,Kovdor,RU,45.91,broken clouds,67.5662,30.4758,,Derevo Zhelaniy
652,Poum,NC,72.79,overcast clouds,-20.2333,164.0167,,
653,Khandyga,RU,77.85,clear sky,62.6667,135.6,,Apel'sin
654,Markala,ML,77.86,overcast clouds,13.7021,-6.0659,,Hôtel Igor
655,Marsa Matruh,EG,73.6,few clouds,31.3525,27.2453,,Beau Site
656,Itupiranga,BR,75.52,clear sky,-5.1347,-49.3267,,Hotel Panorama
657,Allapalli,IN,79.12,overcast clouds,19.4167,80.0667,,"Hotel IK Residency, GUEST HOUSE AC NON AC"
658,Warri,NG,71.98,overcast clouds,5.5167,5.75,,BON Hotel Delta
659,Cimarron Hills,US,73.99,broken clouds,38.8586,-104.6989,,"Holiday Inn Express & Suites Colorado Springs-First & Main, an IHG Hotel"
660,Batemans Bay,AU,61.66,overcast clouds,-35.7167,150.1833,,Batemans Bay Marina Resort
661,Isla Vista,US,91.38,clear sky,34.4133,-119.861,,Best Western Plus South Coast Inn
662,Chincholi,IN,78.12,overcast clouds,17.4667,77.4333,,Friends men's were
663,Robertsport,LR,78.44,light rain,6.7533,-11.3686,,Kwepunha Retreat
664,Wysokie Mazowieckie,PL,52.59,overcast clouds,52.9166,22.5171,,POKOJE Z SERCEM
665,Santa Rosa,PH,87.78,overcast clouds,14.3122,121.1114,,Erlyn’s Sta Rosa City Home
666,Bugembe,UG,65.03,overcast clouds,0.4797,33.2344,,Pacific Cottages and Guest House
667,Belozerskoye,RU,62.02,clear sky,55.8214,65.5842,,
668,Desaguadero,PE,41.36,clear sky,-16.5656,-69.0417,,av. panamericana 264 desaguadero hotel
669,Maarianhamina,AX,57.06,clear sky,60.0973,19.9348,,Park Alandia Hotel
671,San Carlos,VE,75.47,overcast clouds,9.6612,-68.5827,,Hotel Paternopoli
672,San Pedro,PH,87.03,scattered clouds,14.35,121.0167,,Esquivel's Garden And Resort
673,Huarmey,PE,62.73,clear sky,-10.0681,-78.1522,,Hotel Miramar
674,Gorodovikovsk,RU,58.35,clear sky,46.0878,41.9335,,Gostinitsa
675,Abha,SA,67.82,clear sky,18.2164,42.5053,,Abha Hotel
676,Barra Do Garcas,BR,69.6,overcast clouds,-15.89,-52.2567,,Pousada Tropical
677,Caruray,PH,86.86,overcast clouds,10.3094,119.0128,,
678,Kieta,PG,85.39,broken clouds,-6.2167,155.6333,,Uruna Bay Retreat
679,Venice,US,84.97,overcast clouds,27.0998,-82.4543,,A Beach Retreat On Casey Key
680,Mazatan,MX,78.87,overcast clouds,14.8667,-92.45,,Jose Luis Villalobos De La Cruz
681,Hellebaek,DK,54.91,overcast clouds,56.0682,12.5578,,Danhostel Helsingør
682,Smithers,CA,53.92,light intensity shower rain,54.7804,-127.1743,,"Prestige Hudson Bay Lodge, Premier Collection"
683,Bayir,TR,63.12,clear sky,37.2687,28.2167,,Hotel Babadag
684,Parkes,AU,55.29,overcast clouds,-33.1333,148.1833,,Station Motel
685,Penzance,GB,59.49,clear sky,50.1186,-5.5371,,Artist Residence Penzance
686,Fowa,NG,71.85,light rain,8.9167,6.4,,
687,Carlisle,US,69.22,overcast clouds,40.2015,-77.1889,,Fairfield Inn & Suites by Marriott Carlisle
688,Brunswick,US,74.95,clear sky,41.2381,-81.8418,,Quality Inn Brunswick Cleveland South
689,Makakilo City,US,81.61,broken clouds,21.3469,-158.0858,,Marriott's Ko Olina Beach Club
690,Mgandu,TZ,52.61,clear sky,-5.95,34.1333,,
691,Shetpe,KZ,81.93,clear sky,44.1667,52.1167,,Rtsm Shetpe Analog
692,Burnie,AU,56.91,light rain,-41.0667,145.9167,,Beachfront Voyager Motor Inn
693,Puerto Narino,CO,72.45,broken clouds,-3.7703,-70.3831,,Eware Refugio Amazonico
694,Santana Do Livramento,BR,47.3,overcast clouds,-30.8908,-55.5328,,Hotel Emirates
695,Makokou,GA,67.48,broken clouds,0.5738,12.8642,,Hôtel
696,Corn Island,NI,80.58,scattered clouds,12.1694,-83.0418,,Big Fish Guest House
697,Mabaruma,GY,73.74,overcast clouds,8.2,-59.7833,,Monty Brooms Guest House
698,Kommunisticheskiy,RU,64.11,broken clouds,61.6789,64.4819,,
699,Palu,ID,87.85,broken clouds,-0.8917,119.8707,,Hotel Santika Palu
700,Chuka,KE,57.36,overcast clouds,-0.3332,37.6459,,Mountain Breeze Guest House
701,Santa Cruz,BO,74.66,few clouds,-17.8,-63.1667,,Aviador Hotel Boutique
702,Xinmin,CN,72.77,overcast clouds,41.9908,122.8253,,Agricultural Machinery Hotel
703,Chimoio,MZ,51.55,clear sky,-19.1164,33.4833,,Predio Livraria Ahmed
704,Gryfice,PL,58.84,scattered clouds,53.9165,15.2003,,"32. Motel. Accommodation, restaurant"
705,Thyolo,MW,52.16,scattered clouds,-16.0678,35.1405,,Nkhalango Guest Hiuse
706,Trebinje,BA,68.36,clear sky,42.7119,18.3442,,Hotel Aćimović
707,Qasigiannguit,GL,33.33,overcast clouds,68.8193,-51.1922,,Almost HOME
